$GPGGA,121401.00,3733.04867,N,12704.54295,E,1,08,0.00,-3.4,M,,,,*2C
$GPRMC,121401.00,A,3733.04867,N,12704.54295,E,0.000,132.1,151124,,,A*5C
$GPGGA,121402.00,3733.04900,N,12704.54099,E,1,08,0.00,8.2,M,,,,*01
$GPRMC,121402.00,A,3733.04900,N,12704.54099,E,5.724,142.4,151124,,,A*57
$GPGGA,121403.00,3733.05013,N,12704.53772,E,1,08,0.00,1.0,M,,,,*04
$GPRMC,121403.00,A,3733.05013,N,12704.53772,E,7.920,142.4,151124,,,A*51
$GPGGA,121404.00,3733.04949,N,12704.53850,E,1,08,0.00,7.1,M,,,,*0C
$GPRMC,121404.00,A,3733.04949,N,12704.53850,E,4.343,154.0,151124,,,A*51
$GPGGA,121405.00,3733.04928,N,12704.54033,E,1,08,0.00,14.1,M,,,,*32
$GPRMC,121405.00,A,3733.04928,N,12704.54033,E,1.950,165.7,151124,,,A*55
$GPGGA,121406.00,3733.04772,N,12704.54222,E,1,08,0.00,17.4,M,,,,*34
$GPRMC,121406.00,A,3733.04772,N,12704.54222,E,0.801,159.8,151124,,,A*51
$GPGGA,121407.00,3733.04684,N,12704.54283,E,1,08,0.00,19.8,M,,,,*34
$GPRMC,121407.00,A,3733.04684,N,12704.54283,E,1.102,154.5,151124,,,A*58
$GPGGA,121409.00,3733.04565,N,12704.54459,E,1,08,0.00,22.1,M,,,,*36
$GPRMC,121409.00,A,3733.04565,N,12704.54459,E,1.480,160.6,151124,,,A*50
$GPGGA,121410.00,3733.04474,N,12704.54450,E,1,08,0.00,21.3,M,,,,*37
$GPRMC,121410.00,A,3733.04474,N,12704.54450,E,1.651,166.1,151124,,,A*5F
$GPGGA,121411.00,3733.04408,N,12704.54471,E,1,08,0.00,22.3,M,,,,*3D
$GPRMC,121411.00,A,3733.04408,N,12704.54471,E,1.729,153.8,151124,,,A*57
$GPGGA,121412.00,3733.04375,N,12704.54341,E,1,08,0.00,22.0,M,,,,*34
$GPRMC,121412.00,A,3733.04375,N,12704.54341,E,1.618,143.8,151124,,,A*5F
$GPGGA,121413.00,3733.04411,N,12704.54357,E,1,08,0.00,22.7,M,,,,*30
$GPRMC,121413.00,A,3733.04411,N,12704.54357,E,1.377,152.2,151124,,,A*5A
$GPGGA,121414.00,3733.04413,N,12704.54345,E,1,08,0.00,22.6,M,,,,*37
$GPRMC,121414.00,A,3733.04413,N,12704.54345,E,1.263,149.2,151124,,,A*52
$GPGGA,121415.00,3733.04404,N,12704.54358,E,1,08,0.00,22.6,M,,,,*3C
$GPRMC,121415.00,A,3733.04404,N,12704.54358,E,1.198,148.2,151124,,,A*5F
$GPGGA,121416.00,3733.04384,N,12704.54371,E,1,08,0.00,23.0,M,,,,*3C
$GPRMC,121416.00,A,3733.04384,N,12704.54371,E,1.170,131.5,151124,,,A*57
$GPGGA,121417.00,3733.04219,N,12704.54507,E,1,08,0.00,23.2,M,,,,*3D
$GPRMC,121417.00,A,3733.04219,N,12704.54507,E,1.507,151.8,151124,,,A*5B
$GPGGA,121418.00,3733.04154,N,12704.54565,E,1,08,0.00,23.2,M,,,,*3C
$GPRMC,121418.00,A,3733.04154,N,12704.54565,E,1.577,137.9,151124,,,A*5C
$GPGGA,121419.00,3733.04121,N,12704.54650,E,1,08,0.00,23.2,M,,,,*3A
$GPRMC,121419.00,A,3733.04121,N,12704.54650,E,1.596,145.1,151124,,,A*58
$GPGGA,121420.00,3733.04070,N,12704.54691,E,1,08,0.00,23.5,M,,,,*3F
$GPRMC,121420.00,A,3733.04070,N,12704.54691,E,1.624,154.4,151124,,,A*55
$GPGGA,121421.00,3733.04035,N,12704.54726,E,1,08,0.00,22.5,M,,,,*33
$GPRMC,121421.00,A,3733.04035,N,12704.54726,E,1.620,162.5,151124,,,A*58
$GPGGA,121422.00,3733.04052,N,12704.54695,E,1,08,0.00,22.3,M,,,,*3E
$GPRMC,121422.00,A,3733.04052,N,12704.54695,E,1.501,144.1,151124,,,A*53
$GPGGA,121423.00,3733.04048,N,12704.54677,E,1,08,0.00,22.6,M,,,,*3D
$GPRMC,121423.00,A,3733.04048,N,12704.54677,E,1.431,153.7,151124,,,A*57
$GPGGA,121424.00,3733.04049,N,12704.54632,E,1,08,0.00,22.2,M,,,,*3E
$GPRMC,121424.00,A,3733.04049,N,12704.54632,E,1.348,147.6,151124,,,A*5D
$GPGGA,121425.00,3733.04052,N,12704.54568,E,1,08,0.00,22.6,M,,,,*3D
$GPRMC,121425.00,A,3733.04052,N,12704.54568,E,1.266,143.9,151124,,,A*5C
$GPGGA,121426.00,3733.04256,N,12704.54295,E,1,08,0.00,22.1,M,,,,*3A
$GPRMC,121426.00,A,3733.04256,N,12704.54295,E,0.880,141.2,151124,,,A*56
$GPGGA,121427.00,3733.04300,N,12704.54200,E,1,08,0.00,20.7,M,,,,*31
$GPRMC,121427.00,A,3733.04300,N,12704.54200,E,0.793,144.9,151124,,,A*5A
$GPGGA,121428.00,3733.04319,N,12704.54218,E,1,08,0.00,19.8,M,,,,*3A
$GPRMC,121428.00,A,3733.04319,N,12704.54218,E,0.736,142.3,151124,,,A*57
$GPGGA,121429.00,3733.04414,N,12704.54171,E,1,08,0.00,21.8,M,,,,*36
$GPRMC,121429.00,A,3733.04414,N,12704.54171,E,0.597,146.2,151124,,,A*5C
$GPGGA,121430.00,3733.03760,N,12704.55106,E,1,08,0.00,24.7,M,,,,*32
$GPRMC,121430.00,A,3733.03760,N,12704.55106,E,1.591,156.2,151124,,,A*54
$GPGGA,121431.00,3733.03742,N,12704.55096,E,1,08,0.00,24.0,M,,,,*3C
$GPRMC,121431.00,A,3733.03742,N,12704.55096,E,1.552,162.1,151124,,,A*56
$GPGGA,121432.00,3733.03560,N,12704.55077,E,1,08,0.00,24.0,M,,,,*32
$GPRMC,121432.00,A,3733.03560,N,12704.55077,E,1.681,155.1,151124,,,A*51
$GPGGA,121433.00,3733.03506,N,12704.55125,E,1,08,0.00,24.4,M,,,,*31
$GPRMC,121433.00,A,3733.03506,N,12704.55125,E,1.702,167.1,151124,,,A*5D
$GPGGA,121434.00,3733.03597,N,12704.55109,E,1,08,0.00,24.1,M,,,,*35
$GPRMC,121434.00,A,3733.03597,N,12704.55109,E,1.555,183.4,151124,,,A*53
$GPGGA,121435.00,3733.03477,N,12704.55166,E,1,08,0.00,23.3,M,,,,*37
$GPRMC,121435.00,A,3733.03477,N,12704.55166,E,1.644,191.2,151124,,,A*52
$GPGGA,121436.00,3733.03409,N,12704.55344,E,1,08,0.00,24.7,M,,,,*3C
$GPRMC,121436.00,A,3733.03409,N,12704.55344,E,1.728,195.8,151124,,,A*5F
$GPGGA,121437.00,3733.03209,N,12704.55164,E,1,08,0.00,23.4,M,,,,*3F
$GPRMC,121437.00,A,3733.03209,N,12704.55164,E,1.797,185.7,151124,,,A*52
$GPGGA,121438.00,3733.03153,N,12704.55180,E,1,08,0.00,22.1,M,,,,*32
$GPRMC,121438.00,A,3733.03153,N,12704.55180,E,1.803,185.6,151124,,,A*58
$GPGGA,121439.00,3733.03076,N,12704.55295,E,1,08,0.00,22.0,M,,,,*33
$GPRMC,121439.00,A,3733.03076,N,12704.55295,E,1.857,189.0,151124,,,A*53
$GPGGA,121440.00,3733.02931,N,12704.55366,E,1,08,0.00,21.9,M,,,,*31
$GPRMC,121440.00,A,3733.02931,N,12704.55366,E,1.953,180.8,151124,,,A*5F
$GPGGA,121441.00,3733.03247,N,12704.55495,E,1,08,0.00,21.4,M,,,,*3D
$GPRMC,121441.00,A,3733.03247,N,12704.55495,E,1.692,179.5,151124,,,A*57
$GPGGA,121442.00,3733.02969,N,12704.55260,E,1,08,0.00,20.6,M,,,,*37
$GPRMC,121442.00,A,3733.02969,N,12704.55260,E,1.797,181.9,151124,,,A*51
$GPGGA,121443.00,3733.02906,N,12704.55254,E,1,08,0.00,20.9,M,,,,*37
$GPRMC,121443.00,A,3733.02906,N,12704.55254,E,1.804,192.3,151124,,,A*53
$GPGGA,121444.00,3733.02602,N,12704.54621,E,1,08,0.00,20.8,M,,,,*3D
$GPRMC,121444.00,A,3733.02602,N,12704.54621,E,1.910,206.3,151124,,,A*52
$GPGGA,121445.00,3733.02625,N,12704.55066,E,1,08,0.00,20.2,M,,,,*37
$GPRMC,121445.00,A,3733.02625,N,12704.55066,E,1.903,252.6,151124,,,A*54
$GPGGA,121446.00,3733.02473,N,12704.55032,E,1,08,0.00,19.5,M,,,,*39
$GPRMC,121446.00,A,3733.02473,N,12704.55032,E,1.973,213.3,151124,,,A*50
$GPGGA,121447.00,3733.02411,N,12704.55009,E,1,08,0.00,19.6,M,,,,*37
$GPRMC,121447.00,A,3733.02411,N,12704.55009,E,1.974,224.1,151124,,,A*5C
$GPGGA,121448.00,3733.02268,N,12704.54942,E,1,08,0.00,18.7,M,,,,*37
$GPRMC,121448.00,A,3733.02268,N,12704.54942,E,2.030,214.7,151124,,,A*53
$GPGGA,121449.00,3733.02196,N,12704.54930,E,1,08,0.00,18.6,M,,,,*30
$GPRMC,121449.00,A,3733.02196,N,12704.54930,E,2.040,210.0,151124,,,A*51
$GPGGA,121450.00,3733.02072,N,12704.54900,E,1,08,0.00,18.6,M,,,,*30
$GPRMC,121450.00,A,3733.02072,N,12704.54900,E,2.085,206.4,151124,,,A*5B
$GPGGA,121451.00,3733.02020,N,12704.54883,E,1,08,0.00,19.1,M,,,,*3A
$GPRMC,121451.00,A,3733.02020,N,12704.54883,E,2.079,212.8,151124,,,A*5D
$GPGGA,121452.00,3733.01940,N,12704.54837,E,1,08,0.00,19.2,M,,,,*39
$GPRMC,121452.00,A,3733.01940,N,12704.54837,E,2.090,208.4,151124,,,A*5D
$GPGGA,121453.00,3733.01825,N,12704.54822,E,1,08,0.00,18.7,M,,,,*3A
$GPRMC,121453.00,A,3733.01825,N,12704.54822,E,2.127,217.4,151124,,,A*59
$GPGGA,121454.00,3733.01753,N,12704.54804,E,1,08,0.00,18.5,M,,,,*35
$GPRMC,121454.00,A,3733.01753,N,12704.54804,E,2.134,175.2,151124,,,A*57
$GPGGA,121455.00,3733.01757,N,12704.54711,E,1,08,0.00,18.7,M,,,,*39
$GPRMC,121455.00,A,3733.01757,N,12704.54711,E,2.086,172.5,151124,,,A*51
$GPGGA,121456.00,3733.01630,N,12704.54582,E,1,08,0.00,17.8,M,,,,*32
$GPRMC,121456.00,A,3733.01630,N,12704.54582,E,2.125,170.5,151124,,,A*50
$GPGGA,121457.00,3733.01543,N,12704.54643,E,1,08,0.00,18.3,M,,,,*3E
$GPRMC,121457.00,A,3733.01543,N,12704.54643,E,2.145,172.9,151124,,,A*50
$GPGGA,121458.00,3733.01510,N,12704.54664,E,1,08,0.00,18.5,M,,,,*34
$GPRMC,121458.00,A,3733.01510,N,12704.54664,E,2.130,179.7,151124,,,A*5B
$GPGGA,121459.00,3733.01334,N,12704.54691,E,1,08,0.00,19.3,M,,,,*38
$GPRMC,121459.00,A,3733.01334,N,12704.54691,E,2.203,163.0,151124,,,A*5F
$GPGGA,121500.00,3733.01290,N,12704.54661,E,1,08,0.00,18.6,M,,,,*31
$GPRMC,121500.00,A,3733.01290,N,12704.54661,E,2.191,167.2,151124,,,A*5C
$GPGGA,121501.00,3733.01233,N,12704.54665,E,1,08,0.00,18.9,M,,,,*32
$GPRMC,121501.00,A,3733.01233,N,12704.54665,E,2.189,168.7,151124,,,A*53
$GPGGA,121502.00,3733.01210,N,12704.54622,E,1,08,0.00,18.8,M,,,,*32
$GPRMC,121502.00,A,3733.01210,N,12704.54622,E,2.165,166.8,151124,,,A*51
$GPGGA,121503.00,3733.01195,N,12704.54621,E,1,08,0.00,18.6,M,,,,*30
$GPRMC,121503.00,A,3733.01195,N,12704.54621,E,2.139,173.7,151124,,,A*5F
$GPGGA,121504.00,3733.01135,N,12704.54577,E,1,08,0.00,18.8,M,,,,*33
$GPRMC,121504.00,A,3733.01135,N,12704.54577,E,2.138,157.5,151124,,,A*57
$GPGGA,121505.00,3733.01133,N,12704.54495,E,1,08,0.00,18.4,M,,,,*35
$GPRMC,121505.00,A,3733.01133,N,12704.54495,E,2.103,151.2,151124,,,A*54
$GPGGA,121506.00,3733.01058,N,12704.54516,E,1,08,0.00,18.4,M,,,,*30
$GPRMC,121506.00,A,3733.01058,N,12704.54516,E,2.113,154.0,151124,,,A*57
$GPGGA,121507.00,3733.01066,N,12704.54573,E,1,08,0.00,19.1,M,,,,*3B
$GPRMC,121507.00,A,3733.01066,N,12704.54573,E,2.078,158.5,151124,,,A*5D
$GPGGA,121508.00,3733.00980,N,12704.54555,E,1,08,0.00,19.5,M,,,,*34
$GPRMC,121508.00,A,3733.00980,N,12704.54555,E,2.093,156.5,151124,,,A*5D
$GPGGA,121509.00,3733.00905,N,12704.54481,E,1,08,0.00,19.4,M,,,,*31
$GPRMC,121509.00,A,3733.00905,N,12704.54481,E,2.100,151.2,151124,,,A*52
$GPGGA,121510.00,3733.00802,N,12704.54379,E,1,08,0.00,19.5,M,,,,*3E
$GPRMC,121510.00,A,3733.00802,N,12704.54379,E,2.123,130.8,151124,,,A*50
$GPGGA,121511.00,3733.00720,N,12704.54237,E,1,08,0.00,19.9,M,,,,*37
$GPRMC,121511.00,A,3733.00720,N,12704.54237,E,2.134,131.8,151124,,,A*52
$GPGGA,121512.00,3733.00706,N,12704.54237,E,1,08,0.00,19.9,M,,,,*30
$GPRMC,121512.00,A,3733.00706,N,12704.54237,E,2.111,131.9,151124,,,A*53
$GPGGA,121513.00,3733.00613,N,12704.54263,E,1,08,0.00,20.6,M,,,,*30
$GPRMC,121513.00,A,3733.00613,N,12704.54263,E,2.128,122.4,151124,,,A*53
$GPGGA,121514.00,3733.00484,N,12704.54226,E,1,08,0.00,20.6,M,,,,*3A
$GPRMC,121514.00,A,3733.00484,N,12704.54226,E,2.163,134.7,151124,,,A*52
$GPGGA,121515.00,3733.00407,N,12704.54269,E,1,08,0.00,20.8,M,,,,*35
$GPRMC,121515.00,A,3733.00407,N,12704.54269,E,2.171,140.0,151124,,,A*54
$GPGGA,121516.00,3733.00352,N,12704.54168,E,1,08,0.00,21.6,M,,,,*3C
$GPRMC,121516.00,A,3733.00352,N,12704.54168,E,2.169,132.2,151124,,,A*5C
$GPGGA,121517.00,3733.00311,N,12704.54186,E,1,08,0.00,21.1,M,,,,*3D
$GPRMC,121517.00,A,3733.00311,N,12704.54186,E,2.160,140.5,151124,,,A*51
$GPGGA,121518.00,3733.00263,N,12704.54171,E,1,08,0.00,21.1,M,,,,*3E
$GPRMC,121518.00,A,3733.00263,N,12704.54171,E,2.155,153.1,151124,,,A*52
$GPGGA,121519.00,3733.00134,N,12704.54093,E,1,08,0.00,20.5,M,,,,*36
$GPRMC,121519.00,A,3733.00134,N,12704.54093,E,2.187,138.9,151124,,,A*55
$GPGGA,121520.00,3733.00065,N,12704.53935,E,1,08,0.00,21.0,M,,,,*3F
$GPRMC,121520.00,A,3733.00065,N,12704.53935,E,2.194,132.9,151124,,,A*50
$GPGGA,121521.00,3733.00043,N,12704.53884,E,1,08,0.00,21.1,M,,,,*30
$GPRMC,121521.00,A,3733.00043,N,12704.53884,E,2.177,126.3,151124,,,A*5C
$GPGGA,121522.00,3732.99998,N,12704.53889,E,1,08,0.00,20.9,M,,,,*39
$GPRMC,121522.00,A,3732.99998,N,12704.53889,E,2.170,117.7,151124,,,A*5D
$GPGGA,121523.00,3732.99879,N,12704.53952,E,1,08,0.00,20.7,M,,,,*3F
$GPRMC,121523.00,A,3732.99879,N,12704.53952,E,2.194,121.2,151124,,,A*5F
$GPGGA,121524.00,3732.99831,N,12704.54003,E,1,08,0.00,21.3,M,,,,*3B
$GPRMC,121524.00,A,3732.99831,N,12704.54003,E,2.188,151.1,151124,,,A*57
$GPGGA,121525.00,3732.99809,N,12704.53986,E,1,08,0.00,21.4,M,,,,*35
$GPRMC,121525.00,A,3732.99809,N,12704.53986,E,2.172,129.2,151124,,,A*57
$GPGGA,121526.00,3732.99796,N,12704.53870,E,1,08,0.00,21.6,M,,,,*35
$GPRMC,121526.00,A,3732.99796,N,12704.53870,E,2.154,153.3,151124,,,A*5D
$GPGGA,121527.00,3732.99723,N,12704.53866,E,1,08,0.00,21.3,M,,,,*38
$GPRMC,121527.00,A,3732.99723,N,12704.53866,E,2.160,152.7,151124,,,A*57
$GPGGA,121528.00,3732.99675,N,12704.53800,E,1,08,0.00,21.4,M,,,,*32
$GPRMC,121528.00,A,3732.99675,N,12704.53800,E,2.156,151.7,151124,,,A*5C
$GPGGA,121529.00,3732.99665,N,12704.53761,E,1,08,0.00,22.1,M,,,,*3C
$GPRMC,121529.00,A,3732.99665,N,12704.53761,E,2.137,154.2,151124,,,A*53
$GPGGA,121530.00,3732.99627,N,12704.53698,E,1,08,0.00,21.9,M,,,,*3E
$GPRMC,121530.00,A,3732.99627,N,12704.53698,E,2.130,146.2,151124,,,A*5E
$GPGGA,121531.00,3732.99636,N,12704.53746,E,1,08,0.00,22.4,M,,,,*33
$GPRMC,121531.00,A,3732.99636,N,12704.53746,E,2.101,145.0,151124,,,A*5E
$GPGGA,121532.00,3732.99507,N,12704.53652,E,1,08,0.00,21.8,M,,,,*3A
$GPRMC,121532.00,A,3732.99507,N,12704.53652,E,2.132,143.0,151124,,,A*5E
$GPGGA,121533.00,3732.99462,N,12704.53631,E,1,08,0.00,21.5,M,,,,*31
$GPRMC,121533.00,A,3732.99462,N,12704.53631,E,2.127,142.0,151124,,,A*5D
$GPGGA,121534.00,3732.99416,N,12704.53602,E,1,08,0.00,21.7,M,,,,*37
$GPRMC,121534.00,A,3732.99416,N,12704.53602,E,2.122,142.2,151124,,,A*5E
$GPGGA,121535.00,3732.99371,N,12704.53579,E,1,08,0.00,21.5,M,,,,*3D
$GPRMC,121535.00,A,3732.99371,N,12704.53579,E,2.117,157.2,151124,,,A*54
$GPGGA,121536.00,3732.99329,N,12704.53559,E,1,08,0.00,22.0,M,,,,*37
$GPRMC,121536.00,A,3732.99329,N,12704.53559,E,2.112,161.7,151124,,,A*5D
$GPGGA,121537.00,3732.99291,N,12704.53532,E,1,08,0.00,22.1,M,,,,*38
$GPRMC,121537.00,A,3732.99291,N,12704.53532,E,2.104,160.2,151124,,,A*50
$GPGGA,121538.00,3732.99213,N,12704.53514,E,1,08,0.00,22.1,M,,,,*39
$GPRMC,121538.00,A,3732.99213,N,12704.53514,E,2.112,213.5,151124,,,A*56
$GPGGA,121539.00,3732.99093,N,12704.53457,E,1,08,0.00,22.9,M,,,,*3C
$GPRMC,121539.00,A,3732.99093,N,12704.53457,E,2.136,219.3,151124,,,A*51
$GPGGA,121540.00,3732.99026,N,12704.53430,E,1,08,0.00,22.3,M,,,,*37
$GPRMC,121540.00,A,3732.99026,N,12704.53430,E,2.140,218.7,151124,,,A*54
$GPGGA,121541.00,3732.98997,N,12704.53448,E,1,08,0.00,21.7,M,,,,*3C
$GPRMC,121541.00,A,3732.98997,N,12704.53448,E,2.128,217.9,151124,,,A*57
$GPGGA,121542.00,3732.98975,N,12704.53423,E,1,08,0.00,21.9,M,,,,*30
$GPRMC,121542.00,A,3732.98975,N,12704.53423,E,2.116,207.4,151124,,,A*54
$GPGGA,121543.00,3732.98905,N,12704.53397,E,1,08,0.00,21.6,M,,,,*31
$GPRMC,121543.00,A,3732.98905,N,12704.53397,E,2.121,224.4,151124,,,A*5F
$GPGGA,121544.00,3732.98843,N,12704.53320,E,1,08,0.00,20.6,M,,,,*38
$GPRMC,121544.00,A,3732.98843,N,12704.53320,E,2.124,197.6,151124,,,A*5B
$GPGGA,121545.00,3732.98801,N,12704.53266,E,1,08,0.00,19.9,M,,,,*39
$GPRMC,121545.00,A,3732.98801,N,12704.53266,E,2.120,197.4,151124,,,A*59
$GPGGA,121546.00,3732.98803,N,12704.53260,E,1,08,0.00,19.9,M,,,,*3E
$GPRMC,121546.00,A,3732.98803,N,12704.53260,E,2.099,184.0,151124,,,A*5B
$GPGGA,121547.00,3732.98702,N,12704.53192,E,1,08,0.00,19.5,M,,,,*33
$GPRMC,121547.00,A,3732.98702,N,12704.53192,E,2.116,168.6,151124,,,A*58
$GPGGA,121548.00,3732.98652,N,12704.53152,E,1,08,0.00,19.9,M,,,,*38
$GPRMC,121548.00,A,3732.98652,N,12704.53152,E,2.114,169.9,151124,,,A*53
$GPGGA,121549.00,3732.98597,N,12704.53046,E,1,08,0.00,20.2,M,,,,*36
$GPRMC,121549.00,A,3732.98597,N,12704.53046,E,2.117,185.3,151124,,,A*57
$GPGGA,121550.00,3732.98520,N,12704.53059,E,1,08,0.00,20.4,M,,,,*3A
$GPRMC,121550.00,A,3732.98520,N,12704.53059,E,2.122,177.5,151124,,,A*50
$GPGGA,121551.00,3732.98445,N,12704.53013,E,1,08,0.00,20.6,M,,,,*35
$GPRMC,121551.00,A,3732.98445,N,12704.53013,E,2.129,193.2,151124,,,A*5B
$GPGGA,121552.00,3732.98390,N,12704.52977,E,1,08,0.00,20.6,M,,,,*33
$GPRMC,121552.00,A,3732.98390,N,12704.52977,E,2.129,179.6,151124,,,A*5D
$GPGGA,121553.00,3732.98322,N,12704.52932,E,1,08,0.00,20.7,M,,,,*3B
$GPRMC,121553.00,A,3732.98322,N,12704.52932,E,2.134,179.8,151124,,,A*56
$GPGGA,121554.00,3732.98265,N,12704.52878,E,1,08,0.00,20.6,M,,,,*30
$GPRMC,121554.00,A,3732.98265,N,12704.52878,E,2.135,178.3,151124,,,A*57
$GPGGA,121555.00,3732.98219,N,12704.52850,E,1,08,0.00,20.5,M,,,,*33
$GPRMC,121555.00,A,3732.98219,N,12704.52850,E,2.132,171.9,151124,,,A*53
$GPGGA,121556.00,3732.98208,N,12704.52823,E,1,08,0.00,20.5,M,,,,*34
$GPRMC,121556.00,A,3732.98208,N,12704.52823,E,2.118,169.6,151124,,,A*5A
$GPGGA,121557.00,3732.98147,N,12704.52773,E,1,08,0.00,20.5,M,,,,*37
$GPRMC,121557.00,A,3732.98147,N,12704.52773,E,2.120,170.6,151124,,,A*5A
$GPGGA,121558.00,3732.98051,N,12704.52741,E,1,08,0.00,20.6,M,,,,*3C
$GPRMC,121558.00,A,3732.98051,N,12704.52741,E,2.133,162.6,151124,,,A*53
$GPGGA,121559.00,3732.97964,N,12704.52698,E,1,08,0.00,20.5,M,,,,*3B
$GPRMC,121559.00,A,3732.97964,N,12704.52698,E,2.143,168.1,151124,,,A*5D
$GPGGA,121600.00,3732.97884,N,12704.52644,E,1,08,0.00,20.4,M,,,,*3B
$GPRMC,121600.00,A,3732.97884,N,12704.52644,E,2.151,154.2,151124,,,A*53
$GPGGA,121601.00,3732.97824,N,12704.52614,E,1,08,0.00,20.5,M,,,,*34
$GPRMC,121601.00,A,3732.97824,N,12704.52614,E,2.152,154.0,151124,,,A*5C
$GPGGA,121602.00,3732.97758,N,12704.52606,E,1,08,0.00,20.7,M,,,,*32
$GPRMC,121602.00,A,3732.97758,N,12704.52606,E,2.154,158.2,151124,,,A*50
$GPGGA,121603.00,3732.97690,N,12704.52585,E,1,08,0.00,20.7,M,,,,*3E
$GPRMC,121603.00,A,3732.97690,N,12704.52585,E,2.157,157.6,151124,,,A*54
$GPGGA,121604.00,3732.97641,N,12704.52536,E,1,08,0.00,20.0,M,,,,*3A
$GPRMC,121604.00,A,3732.97641,N,12704.52536,E,2.155,186.3,151124,,,A*5C
$GPGGA,121605.00,3732.97558,N,12704.52490,E,1,08,0.00,20.1,M,,,,*3C
$GPRMC,121605.00,A,3732.97558,N,12704.52490,E,2.164,231.6,151124,,,A*53
$GPGGA,121606.00,3732.97500,N,12704.52453,E,1,08,0.00,20.2,M,,,,*3E
$GPRMC,121606.00,A,3732.97500,N,12704.52453,E,2.164,185.1,151124,,,A*59
$GPGGA,121607.00,3732.97391,N,12704.52328,E,1,08,0.00,20.9,M,,,,*31
$GPRMC,121607.00,A,3732.97391,N,12704.52328,E,2.184,179.1,151124,,,A*50
$GPGGA,121608.00,3732.97319,N,12704.52213,E,1,08,0.00,20.5,M,,,,*3B
$GPRMC,121608.00,A,3732.97319,N,12704.52213,E,2.192,167.7,151124,,,A*58
$GPGGA,121609.00,3732.97297,N,12704.52335,E,1,08,0.00,20.6,M,,,,*3B
$GPRMC,121609.00,A,3732.97297,N,12704.52335,E,2.175,161.9,151124,,,A*5A
$GPGGA,121610.00,3732.97326,N,12704.52228,E,1,08,0.00,21.0,M,,,,*32
$GPRMC,121610.00,A,3732.97326,N,12704.52228,E,2.155,173.0,151124,,,A*5C
$GPGGA,121611.00,3732.97260,N,12704.52070,E,1,08,0.00,20.6,M,,,,*38
$GPRMC,121611.00,A,3732.97260,N,12704.52070,E,2.164,174.8,151124,,,A*5C
$GPGGA,121612.00,3732.97220,N,12704.52084,E,1,08,0.00,21.3,M,,,,*30
$GPRMC,121612.00,A,3732.97220,N,12704.52084,E,2.158,163.5,151124,,,A*54
$GPGGA,121613.00,3732.97196,N,12704.52060,E,1,08,0.00,21.7,M,,,,*31
$GPRMC,121613.00,A,3732.97196,N,12704.52060,E,2.148,158.9,151124,,,A*54
$GPGGA,121614.00,3732.97101,N,12704.51920,E,1,08,0.00,21.0,M,,,,*31
$GPRMC,121614.00,A,3732.97101,N,12704.51920,E,2.164,171.9,151124,,,A*56
$GPGGA,121615.00,3732.97072,N,12704.51843,E,1,08,0.00,20.8,M,,,,*38
$GPRMC,121615.00,A,3732.97072,N,12704.51843,E,2.160,173.3,151124,,,A*5A
$GPGGA,121616.00,3732.97020,N,12704.51758,E,1,08,0.00,20.6,M,,,,*37
$GPRMC,121616.00,A,3732.97020,N,12704.51758,E,2.162,160.7,151124,,,A*5F
$GPGGA,121617.00,3732.96864,N,12704.51585,E,1,08,0.00,20.9,M,,,,*32
$GPRMC,121617.00,A,3732.96864,N,12704.51585,E,2.195,173.0,151124,,,A*58
$GPGGA,121618.00,3732.96896,N,12704.51606,E,1,08,0.00,21.0,M,,,,*30
$GPRMC,121618.00,A,3732.96896,N,12704.51606,E,2.170,181.9,151124,,,A*5D
$GPGGA,121619.00,3732.96836,N,12704.51592,E,1,08,0.00,21.1,M,,,,*34
$GPRMC,121619.00,A,3732.96836,N,12704.51592,E,2.170,182.5,151124,,,A*57
$GPGGA,121620.00,3732.96857,N,12704.51627,E,1,08,0.00,21.5,M,,,,*30
$GPRMC,121620.00,A,3732.96857,N,12704.51627,E,2.147,184.7,151124,,,A*57
$GPGGA,121621.00,3732.96795,N,12704.51451,E,1,08,0.00,20.5,M,,,,*32
$GPRMC,121621.00,A,3732.96795,N,12704.51451,E,2.156,186.9,151124,,,A*58
$GPGGA,121622.00,3732.96696,N,12704.51343,E,1,08,0.00,20.5,M,,,,*37
$GPRMC,121622.00,A,3732.96696,N,12704.51343,E,2.172,182.5,151124,,,A*53
$GPGGA,121623.00,3732.96701,N,12704.51341,E,1,08,0.00,19.9,M,,,,*3D
$GPRMC,121623.00,A,3732.96701,N,12704.51341,E,2.155,180.5,151124,,,A*58
$GPGGA,121624.00,3732.96637,N,12704.51327,E,1,08,0.00,20.3,M,,,,*3E
$GPRMC,121624.00,A,3732.96637,N,12704.51327,E,2.156,177.6,151124,,,A*53
$GPGGA,121625.00,3732.96637,N,12704.51292,E,1,08,0.00,19.7,M,,,,*3E
$GPRMC,121625.00,A,3732.96637,N,12704.51292,E,2.143,137.7,151124,,,A*5C
$GPGGA,121626.00,3732.96586,N,12704.51234,E,1,08,0.00,20.0,M,,,,*35
$GPRMC,121626.00,A,3732.96586,N,12704.51234,E,2.144,151.6,151124,,,A*5C
$GPGGA,121627.00,3732.96525,N,12704.51148,E,1,08,0.00,20.1,M,,,,*34
$GPRMC,121627.00,A,3732.96525,N,12704.51148,E,2.148,166.7,151124,,,A*55
$GPGGA,121628.00,3732.96442,N,12704.51047,E,1,08,0.00,20.0,M,,,,*34
$GPRMC,121628.00,A,3732.96442,N,12704.51047,E,2.159,168.9,151124,,,A*54
$GPGGA,121629.00,3732.96367,N,12704.50961,E,1,08,0.00,20.1,M,,,,*38
$GPRMC,121629.00,A,3732.96367,N,12704.50961,E,2.167,228.3,151124,,,A*59
$GPGGA,121630.00,3732.96191,N,12704.50763,E,1,08,0.00,20.1,M,,,,*37
$GPRMC,121630.00,A,3732.96191,N,12704.50763,E,2.204,189.3,151124,,,A*58
$GPGGA,121631.00,3732.96162,N,12704.50818,E,1,08,0.00,19.9,M,,,,*3B
$GPRMC,121631.00,A,3732.96162,N,12704.50818,E,2.193,197.0,151124,,,A*57
$GPGGA,121632.00,3732.96117,N,12704.50559,E,1,08,0.00,19.5,M,,,,*3E
$GPRMC,121632.00,A,3732.96117,N,12704.50559,E,2.204,225.1,151124,,,A*58
$GPGGA,121633.00,3732.96059,N,12704.50572,E,1,08,0.00,20.1,M,,,,*33
$GPRMC,121633.00,A,3732.96059,N,12704.50572,E,2.202,186.6,151124,,,A*50
$GPGGA,121634.00,3732.95961,N,12704.50544,E,1,08,0.00,19.7,M,,,,*3C
$GPRMC,121634.00,A,3732.95961,N,12704.50544,E,2.211,161.3,151124,,,A*5D
$GPGGA,121635.00,3732.96054,N,12704.50377,E,1,08,0.00,20.0,M,,,,*3A
$GPRMC,121635.00,A,3732.96054,N,12704.50377,E,2.186,166.5,151124,,,A*5A
$GPGGA,121636.00,3732.95933,N,12704.50328,E,1,08,0.00,19.1,M,,,,*33
$GPRMC,121636.00,A,3732.95933,N,12704.50328,E,2.201,227.2,151124,,,A*55
$GPGGA,121637.00,3732.95934,N,12704.50326,E,1,08,0.00,19.2,M,,,,*38
$GPRMC,121637.00,A,3732.95934,N,12704.50326,E,2.187,173.4,151124,,,A*54
$GPGGA,121638.00,3732.95874,N,12704.50428,E,1,08,0.00,20.0,M,,,,*33
$GPRMC,121638.00,A,3732.95874,N,12704.50428,E,2.180,155.4,151124,,,A*54
$GPGGA,121639.00,3732.95746,N,12704.50260,E,1,08,0.00,20.6,M,,,,*30
$GPRMC,121639.00,A,3732.95746,N,12704.50260,E,2.204,168.3,151124,,,A*57
$GPGGA,121640.00,3732.95741,N,12704.50274,E,1,08,0.00,21.5,M,,,,*3E
$GPRMC,121640.00,A,3732.95741,N,12704.50274,E,2.190,170.5,151124,,,A*5A
$GPGGA,121641.00,3732.95777,N,12704.50254,E,1,08,0.00,21.7,M,,,,*3A
$GPRMC,121641.00,A,3732.95777,N,12704.50254,E,2.170,167.2,151124,,,A*53
$GPGGA,121642.00,3732.95754,N,12704.50298,E,1,08,0.00,22.0,M,,,,*3C
$GPRMC,121642.00,A,3732.95754,N,12704.50298,E,2.159,176.1,151124,,,A*59
$GPGGA,121643.00,3732.95600,N,12704.50242,E,1,08,0.00,22.6,M,,,,*3C
$GPRMC,121643.00,A,3732.95600,N,12704.50242,E,2.181,171.1,151124,,,A*5D
$GPGGA,121644.00,3732.95474,N,12704.50251,E,1,08,0.00,23.4,M,,,,*3B
$GPRMC,121644.00,A,3732.95474,N,12704.50251,E,2.193,165.9,151124,,,A*57
$GPGGA,121645.00,3732.95352,N,12704.50228,E,1,08,0.00,23.2,M,,,,*31
$GPRMC,121645.00,A,3732.95352,N,12704.50228,E,2.207,168.4,151124,,,A*55
$GPGGA,121646.00,3732.95307,N,12704.50257,E,1,08,0.00,23.5,M,,,,*3D
$GPRMC,121646.00,A,3732.95307,N,12704.50257,E,2.201,174.8,151124,,,A*59
$GPGGA,121647.00,3732.95283,N,12704.50365,E,1,08,0.00,23.9,M,,,,*3D
$GPRMC,121647.00,A,3732.95283,N,12704.50365,E,2.187,182.9,151124,,,A*50
$GPGGA,121648.00,3732.95199,N,12704.50320,E,1,08,0.00,25.1,M,,,,*35
$GPRMC,121648.00,A,3732.95199,N,12704.50320,E,2.194,181.6,151124,,,A*58
$GPGGA,121649.00,3732.95111,N,12704.50344,E,1,08,0.00,25.6,M,,,,*31
$GPRMC,121649.00,A,3732.95111,N,12704.50344,E,2.197,174.9,151124,,,A*5D
$GPGGA,121650.00,3732.95157,N,12704.50377,E,1,08,0.00,25.3,M,,,,*3E
$GPRMC,121650.00,A,3732.95157,N,12704.50377,E,2.173,176.7,151124,,,A*51
$GPGGA,121651.00,3732.95105,N,12704.50352,E,1,08,0.00,26.1,M,,,,*3E
$GPRMC,121651.00,A,3732.95105,N,12704.50352,E,2.172,171.1,151124,,,A*50
$GPGGA,121652.00,3732.94911,N,12704.50274,E,1,08,0.00,25.7,M,,,,*31
$GPRMC,121652.00,A,3732.94911,N,12704.50274,E,2.202,174.8,151124,,,A*52
$GPGGA,121653.00,3732.94727,N,12704.50199,E,1,08,0.00,25.7,M,,,,*3B
$GPRMC,121653.00,A,3732.94727,N,12704.50199,E,2.230,179.4,151124,,,A*58
$GPGGA,121654.00,3732.94667,N,12704.50197,E,1,08,0.00,26.3,M,,,,*30
$GPRMC,121654.00,A,3732.94667,N,12704.50197,E,2.229,187.8,151124,,,A*51
$GPGGA,121655.00,3732.94573,N,12704.50143,E,1,08,0.00,26.6,M,,,,*3B
$GPRMC,121655.00,A,3732.94573,N,12704.50143,E,2.238,187.2,151124,,,A*55
$GPGGA,121656.00,3732.94394,N,12704.50125,E,1,08,0.00,27.1,M,,,,*31
$GPRMC,121656.00,A,3732.94394,N,12704.50125,E,2.261,197.9,151124,,,A*5F
$GPGGA,121657.00,3732.94273,N,12704.50096,E,1,08,0.00,27.3,M,,,,*33
$GPRMC,121657.00,A,3732.94273,N,12704.50096,E,2.273,183.6,151124,,,A*56
$GPGGA,121658.00,3732.94176,N,12704.50078,E,1,08,0.00,28.0,M,,,,*36
$GPRMC,121658.00,A,3732.94176,N,12704.50078,E,2.280,179.2,151124,,,A*52
$GPGGA,121659.00,3732.94091,N,12704.50092,E,1,08,0.00,27.6,M,,,,*32
$GPRMC,121659.00,A,3732.94091,N,12704.50092,E,2.283,169.7,151124,,,A*58
$GPGGA,121700.00,3732.94071,N,12704.50127,E,1,08,0.00,28.4,M,,,,*33
$GPRMC,121700.00,A,3732.94071,N,12704.50127,E,2.272,169.1,151124,,,A*5C
$GPGGA,121701.00,3732.94026,N,12704.50165,E,1,08,0.00,28.9,M,,,,*3B
$GPRMC,121701.00,A,3732.94026,N,12704.50165,E,2.266,177.9,151124,,,A*5B
$GPGGA,121702.00,3732.93926,N,12704.50186,E,1,08,0.00,28.9,M,,,,*3B
$GPRMC,121702.00,A,3732.93926,N,12704.50186,E,2.272,165.6,151124,,,A*52
$GPGGA,121703.00,3732.93827,N,12704.50205,E,1,08,0.00,29.4,M,,,,*3E
$GPRMC,121703.00,A,3732.93827,N,12704.50205,E,2.278,193.1,151124,,,A*5F
$GPGGA,121704.00,3732.93798,N,12704.50157,E,1,08,0.00,30.3,M,,,,*39
$GPRMC,121704.00,A,3732.93798,N,12704.50157,E,2.273,219.5,151124,,,A*59
$GPGGA,121705.00,3732.93756,N,12704.50071,E,1,08,0.00,29.5,M,,,,*31
$GPRMC,121705.00,A,3732.93756,N,12704.50071,E,2.272,215.2,151124,,,A*55
$GPGGA,121706.00,3732.93714,N,12704.49931,E,1,08,0.00,29.2,M,,,,*36
$GPRMC,121706.00,A,3732.93714,N,12704.49931,E,2.274,219.0,151124,,,A*5D
$GPGGA,121707.00,3732.93825,N,12704.49958,E,1,08,0.00,28.8,M,,,,*3E
$GPRMC,121707.00,A,3732.93825,N,12704.49958,E,2.240,215.2,151124,,,A*57
$GPGGA,121708.00,3732.93809,N,12704.50021,E,1,08,0.00,29.0,M,,,,*39
$GPRMC,121708.00,A,3732.93809,N,12704.50021,E,2.228,215.9,151124,,,A*5C
$GPGGA,121709.00,3732.93741,N,12704.49963,E,1,08,0.00,29.3,M,,,,*3F
$GPRMC,121709.00,A,3732.93741,N,12704.49963,E,2.231,214.6,151124,,,A*5F
$GPGGA,121710.00,3732.93593,N,12704.49870,E,1,08,0.00,28.9,M,,,,*32
$GPRMC,121710.00,A,3732.93593,N,12704.49870,E,2.250,216.8,151124,,,A*52
$GPGGA,121711.00,3732.93447,N,12704.49896,E,1,08,0.00,28.2,M,,,,*38
$GPRMC,121711.00,A,3732.93447,N,12704.49896,E,2.264,207.9,151124,,,A*55
$GPGGA,121712.00,3732.93315,N,12704.49940,E,1,08,0.00,27.6,M,,,,*3A
$GPRMC,121712.00,A,3732.93315,N,12704.49940,E,2.274,210.9,151124,,,A*5B
$GPGGA,121713.00,3732.93182,N,12704.49879,E,1,08,0.00,26.0,M,,,,*3B
$GPRMC,121713.00,A,3732.93182,N,12704.49879,E,2.289,204.5,151124,,,A*56
$GPGGA,121714.00,3732.93087,N,12704.49826,E,1,08,0.00,25.5,M,,,,*34
$GPRMC,121714.00,A,3732.93087,N,12704.49826,E,2.296,208.5,151124,,,A*5D
$GPGGA,121715.00,3732.93017,N,12704.49713,E,1,08,0.00,25.3,M,,,,*33
$GPRMC,121715.00,A,3732.93017,N,12704.49713,E,2.302,210.4,151124,,,A*58
$GPGGA,121716.00,3732.92921,N,12704.49587,E,1,08,0.00,25.5,M,,,,*34
$GPRMC,121716.00,A,3732.92921,N,12704.49587,E,2.312,206.9,151124,,,A*52
$GPGGA,121717.00,3732.92912,N,12704.49680,E,1,08,0.00,25.4,M,,,,*30
$GPRMC,121717.00,A,3732.92912,N,12704.49680,E,2.298,201.0,151124,,,A*5A
$GPGGA,121718.00,3732.92872,N,12704.49659,E,1,08,0.00,25.5,M,,,,*3D
$GPRMC,121718.00,A,3732.92872,N,12704.49659,E,2.294,200.1,151124,,,A*5A
$GPGGA,121719.00,3732.92777,N,12704.49778,E,1,08,0.00,25.4,M,,,,*35
$GPRMC,121719.00,A,3732.92777,N,12704.49778,E,2.294,202.4,151124,,,A*54
$GPGGA,121720.00,3732.92654,N,12704.49861,E,1,08,0.00,25.1,M,,,,*3D
$GPRMC,121720.00,A,3732.92654,N,12704.49861,E,2.301,197.4,151124,,,A*5B
$GPGGA,121721.00,3732.92568,N,12704.49849,E,1,08,0.00,25.1,M,,,,*3A
$GPRMC,121721.00,A,3732.92568,N,12704.49849,E,2.305,197.5,151124,,,A*59
$GPGGA,121722.00,3732.92706,N,12704.49682,E,1,08,0.00,25.1,M,,,,*3A
$GPRMC,121722.00,A,3732.92706,N,12704.49682,E,2.276,200.9,151124,,,A*5D
$GPGGA,121723.00,3732.92468,N,12704.49952,E,1,08,0.00,25.2,M,,,,*31
$GPRMC,121723.00,A,3732.92468,N,12704.49952,E,2.295,194.8,151124,,,A*57
$GPGGA,121724.00,3732.92411,N,12704.49983,E,1,08,0.00,25.7,M,,,,*31
$GPRMC,121724.00,A,3732.92411,N,12704.49983,E,2.292,189.1,151124,,,A*50
$GPGGA,121725.00,3732.92287,N,12704.50013,E,1,08,0.00,26.7,M,,,,*32
$GPRMC,121725.00,A,3732.92287,N,12704.50013,E,2.301,184.1,151124,,,A*56
$GPGGA,121726.00,3732.92043,N,12704.50085,E,1,08,0.00,26.3,M,,,,*30
$GPRMC,121726.00,A,3732.92043,N,12704.50085,E,2.329,183.0,151124,,,A*5C
$GPGGA,121727.00,3732.92060,N,12704.49924,E,1,08,0.00,26.6,M,,,,*3F
$GPRMC,121727.00,A,3732.92060,N,12704.49924,E,2.320,176.9,151124,,,A*5C
$GPGGA,121728.00,3732.91949,N,12704.49940,E,1,08,0.00,26.6,M,,,,*33
$GPRMC,121728.00,A,3732.91949,N,12704.49940,E,2.327,183.1,151124,,,A*55
$GPGGA,121729.00,3732.91787,N,12704.50004,E,1,08,0.00,25.5,M,,,,*3F
$GPRMC,121729.00,A,3732.91787,N,12704.50004,E,2.341,184.6,151124,,,A*59
$GPGGA,121730.00,3732.91830,N,12704.49890,E,1,08,0.00,25.5,M,,,,*39
$GPRMC,121730.00,A,3732.91830,N,12704.49890,E,2.326,173.5,151124,,,A*55
$GPGGA,121731.00,3732.91835,N,12704.49843,E,1,08,0.00,25.2,M,,,,*34
$GPRMC,121731.00,A,3732.91835,N,12704.49843,E,2.316,169.2,151124,,,A*50
$GPGGA,121732.00,3732.91631,N,12704.49867,E,1,08,0.00,24.2,M,,,,*3A
$GPRMC,121732.00,A,3732.91631,N,12704.49867,E,2.338,195.3,151124,,,A*51
$GPGGA,121733.00,3732.91505,N,12704.49767,E,1,08,0.00,23.2,M,,,,*37
$GPRMC,121733.00,A,3732.91505,N,12704.49767,E,2.351,195.6,151124,,,A*51
$GPGGA,121734.00,3732.91409,N,12704.49663,E,1,08,0.00,23.9,M,,,,*33
$GPRMC,121734.00,A,3732.91409,N,12704.49663,E,2.359,198.5,151124,,,A*58
$GPGGA,121735.00,3732.91288,N,12704.49639,E,1,08,0.00,23.5,M,,,,*3E
$GPRMC,121735.00,A,3732.91288,N,12704.49639,E,2.369,208.0,151124,,,A*55
$GPGGA,121736.00,3732.91200,N,12704.49601,E,1,08,0.00,23.7,M,,,,*34
$GPRMC,121736.00,A,3732.91200,N,12704.49601,E,2.373,197.0,151124,,,A*53
$GPGGA,121737.00,3732.91112,N,12704.49505,E,1,08,0.00,23.8,M,,,,*3D
$GPRMC,121737.00,A,3732.91112,N,12704.49505,E,2.380,196.1,151124,,,A*59
$GPGGA,121738.00,3732.91115,N,12704.49485,E,1,08,0.00,23.7,M,,,,*33
$GPRMC,121738.00,A,3732.91115,N,12704.49485,E,2.369,195.8,151124,,,A*55
$GPGGA,121739.00,3732.90872,N,12704.49762,E,1,08,0.00,23.8,M,,,,*3E
$GPRMC,121739.00,A,3732.90872,N,12704.49762,E,2.388,196.7,151124,,,A*54
$GPGGA,121740.00,3732.90797,N,12704.49716,E,1,08,0.00,22.6,M,,,,*38
$GPRMC,121740.00,A,3732.90797,N,12704.49716,E,2.390,198.4,151124,,,A*59
$GPGGA,121741.00,3732.90677,N,12704.49770,E,1,08,0.00,23.1,M,,,,*30
$GPRMC,121741.00,A,3732.90677,N,12704.49770,E,2.397,191.0,151124,,,A*5D
$GPGGA,121742.00,3732.90629,N,12704.49682,E,1,08,0.00,23.2,M,,,,*37
$GPRMC,121742.00,A,3732.90629,N,12704.49682,E,2.396,195.0,151124,,,A*5C
$GPGGA,121743.00,3732.90459,N,12704.49594,E,1,08,0.00,23.1,M,,,,*34
$GPRMC,121743.00,A,3732.90459,N,12704.49594,E,2.415,193.5,151124,,,A*53
$GPGGA,121744.00,3732.90396,N,12704.49519,E,1,08,0.00,23.0,M,,,,*33
$GPRMC,121744.00,A,3732.90396,N,12704.49519,E,2.416,200.5,151124,,,A*5F
$GPGGA,121745.00,3732.90202,N,12704.49401,E,1,08,0.00,23.0,M,,,,*36
$GPRMC,121745.00,A,3732.90202,N,12704.49401,E,2.440,194.0,151124,,,A*52
$GPGGA,121746.00,3732.90158,N,12704.49390,E,1,08,0.00,23.3,M,,,,*35
$GPRMC,121746.00,A,3732.90158,N,12704.49390,E,2.436,192.7,151124,,,A*52
$GPGGA,121747.00,3732.90086,N,12704.49342,E,1,08,0.00,23.1,M,,,,*3B
$GPRMC,121747.00,A,3732.90086,N,12704.49342,E,2.438,184.7,151124,,,A*57
$GPGGA,121748.00,3732.89954,N,12704.49428,E,1,08,0.00,23.6,M,,,,*36
$GPRMC,121748.00,A,3732.89954,N,12704.49428,E,2.445,192.9,151124,,,A*5E
$GPGGA,121749.00,3732.89987,N,12704.49289,E,1,08,0.00,23.5,M,,,,*37
$GPRMC,121749.00,A,3732.89987,N,12704.49289,E,2.433,208.3,151124,,,A*57
$GPGGA,121750.00,3732.90051,N,12704.49203,E,1,08,0.00,23.5,M,,,,*37
$GPRMC,121750.00,A,3732.90051,N,12704.49203,E,2.416,200.7,151124,,,A*5C
$GPGGA,121751.00,3732.89954,N,12704.49068,E,1,08,0.00,23.4,M,,,,*3C
$GPRMC,121751.00,A,3732.89954,N,12704.49068,E,2.424,198.1,151124,,,A*53
$GPGGA,121752.00,3732.89909,N,12704.48983,E,1,08,0.00,23.3,M,,,,*3D
$GPRMC,121752.00,A,3732.89909,N,12704.48983,E,2.423,212.3,151124,,,A*51
$GPGGA,121753.00,3732.89904,N,12704.48884,E,1,08,0.00,22.6,M,,,,*33
$GPRMC,121753.00,A,3732.89904,N,12704.48884,E,2.417,187.1,151124,,,A*51
$GPGGA,121754.00,3732.89882,N,12704.48789,E,1,08,0.00,23.0,M,,,,*3E
$GPRMC,121754.00,A,3732.89882,N,12704.48789,E,2.413,164.1,151124,,,A*52
$GPGGA,121755.00,3732.89889,N,12704.48805,E,1,08,0.00,22.8,M,,,,*36
$GPRMC,121755.00,A,3732.89889,N,12704.48805,E,2.401,159.0,151124,,,A*5F
$GPGGA,121756.00,3732.89922,N,12704.48745,E,1,08,0.00,22.9,M,,,,*3F
$GPRMC,121756.00,A,3732.89922,N,12704.48745,E,2.388,163.2,151124,,,A*5A
$GPGGA,121757.00,3732.89832,N,12704.48580,E,1,08,0.00,22.9,M,,,,*35
$GPRMC,121757.00,A,3732.89832,N,12704.48580,E,2.397,160.4,151124,,,A*5B
$GPGGA,121758.00,3732.89780,N,12704.48558,E,1,08,0.00,23.2,M,,,,*33
$GPRMC,121758.00,A,3732.89780,N,12704.48558,E,2.395,171.1,151124,,,A*50
$GPGGA,121759.00,3732.89780,N,12704.48471,E,1,08,0.00,23.7,M,,,,*3D
$GPRMC,121759.00,A,3732.89780,N,12704.48471,E,2.388,154.8,151124,,,A*59
$GPGGA,121800.00,3732.89780,N,12704.48380,E,1,08,0.00,24.4,M,,,,*33
$GPRMC,121800.00,A,3732.89780,N,12704.48380,E,2.381,158.3,151124,,,A*5D
$GPGGA,121801.00,3732.89781,N,12704.48293,E,1,08,0.00,24.0,M,,,,*34
$GPRMC,121801.00,A,3732.89781,N,12704.48293,E,2.374,171.6,151124,,,A*5A
$GPGGA,121802.00,3732.89763,N,12704.48227,E,1,08,0.00,24.4,M,,,,*30
$GPRMC,121802.00,A,3732.89763,N,12704.48227,E,2.369,169.2,151124,,,A*5B
$GPGGA,121803.00,3732.89650,N,12704.48098,E,1,08,0.00,24.3,M,,,,*31
$GPRMC,121803.00,A,3732.89650,N,12704.48098,E,2.380,169.0,151124,,,A*58
$GPGGA,121804.00,3732.89606,N,12704.48010,E,1,08,0.00,24.6,M,,,,*30
$GPRMC,121804.00,A,3732.89606,N,12704.48010,E,2.380,172.2,151124,,,A*54
$GPGGA,121805.00,3732.89556,N,12704.48043,E,1,08,0.00,25.4,M,,,,*32
$GPRMC,121805.00,A,3732.89556,N,12704.48043,E,2.376,176.7,151124,,,A*5D
$GPGGA,121806.00,3732.89528,N,12704.48044,E,1,08,0.00,26.1,M,,,,*39
$GPRMC,121806.00,A,3732.89528,N,12704.48044,E,2.370,184.2,151124,,,A*5E
$GPGGA,121807.00,3732.89499,N,12704.48048,E,1,08,0.00,27.7,M,,,,*38
$GPRMC,121807.00,A,3732.89499,N,12704.48048,E,2.364,185.0,151124,,,A*5E
$GPGGA,121808.00,3732.89472,N,12704.48025,E,1,08,0.00,28.5,M,,,,*34
$GPRMC,121808.00,A,3732.89472,N,12704.48025,E,2.359,180.3,151124,,,A*57
$GPGGA,121809.00,3732.89418,N,12704.48012,E,1,08,0.00,28.7,M,,,,*3F
$GPRMC,121809.00,A,3732.89418,N,12704.48012,E,2.358,190.9,151124,,,A*54
$GPGGA,121810.00,3732.89300,N,12704.47978,E,1,08,0.00,29.1,M,,,,*34
$GPRMC,121810.00,A,3732.89300,N,12704.47978,E,2.366,197.7,151124,,,A*5C
$GPGGA,121811.00,3732.89204,N,12704.47893,E,1,08,0.00,30.0,M,,,,*3D
$GPRMC,121811.00,A,3732.89204,N,12704.47893,E,2.373,190.8,151124,,,A*50
$GPGGA,121812.00,3732.89065,N,12704.47805,E,1,08,0.00,29.1,M,,,,*3D
$GPRMC,121812.00,A,3732.89065,N,12704.47805,E,2.385,187.1,151124,,,A*5F
$GPGGA,121813.00,3732.89051,N,12704.47773,E,1,08,0.00,29.5,M,,,,*31
$GPRMC,121813.00,A,3732.89051,N,12704.47773,E,2.379,175.8,151124,,,A*50
$GPGGA,121814.00,3732.88988,N,12704.47706,E,1,08,0.00,29.4,M,,,,*39
$GPRMC,121814.00,A,3732.88988,N,12704.47706,E,2.380,177.1,151124,,,A*54
$GPGGA,121815.00,3732.88922,N,12704.47625,E,1,08,0.00,29.5,M,,,,*39
$GPRMC,121815.00,A,3732.88922,N,12704.47625,E,2.383,183.3,151124,,,A*5F
$GPGGA,121816.00,3732.88902,N,12704.47645,E,1,08,0.00,29.6,M,,,,*3D
$GPRMC,121816.00,A,3732.88902,N,12704.47645,E,2.375,179.8,151124,,,A*5F
$GPGGA,121817.00,3732.88839,N,12704.47600,E,1,08,0.00,29.5,M,,,,*37
$GPRMC,121817.00,A,3732.88839,N,12704.47600,E,2.376,182.1,151124,,,A*58
$GPGGA,121818.00,3732.88773,N,12704.47565,E,1,08,0.00,29.4,M,,,,*38
$GPRMC,121818.00,A,3732.88773,N,12704.47565,E,2.377,185.8,151124,,,A*59
$GPGGA,121819.00,3732.88715,N,12704.47522,E,1,08,0.00,29.7,M,,,,*39
$GPRMC,121819.00,A,3732.88715,N,12704.47522,E,2.377,187.7,151124,,,A*56
$GPGGA,121820.00,3732.88668,N,12704.47499,E,1,08,0.00,29.8,M,,,,*36
$GPRMC,121820.00,A,3732.88668,N,12704.47499,E,2.374,179.6,151124,,,A*55
$GPGGA,121821.00,3732.88578,N,12704.47447,E,1,08,0.00,29.4,M,,,,*3A
$GPRMC,121821.00,A,3732.88578,N,12704.47447,E,2.379,172.1,151124,,,A*54
$GPGGA,121822.00,3732.88482,N,12704.47425,E,1,08,0.00,29.0,M,,,,*3D
$GPRMC,121822.00,A,3732.88482,N,12704.47425,E,2.383,163.9,151124,,,A*5A
$GPGGA,121823.00,3732.88286,N,12704.47308,E,1,08,0.00,29.5,M,,,,*33
$GPRMC,121823.00,A,3732.88286,N,12704.47308,E,2.404,166.9,151124,,,A*5C
$GPGGA,121824.00,3732.88177,N,12704.47331,E,1,08,0.00,29.8,M,,,,*3E
$GPRMC,121824.00,A,3732.88177,N,12704.47331,E,2.408,166.7,151124,,,A*5E
$GPGGA,121825.00,3732.88071,N,12704.47232,E,1,08,0.00,29.3,M,,,,*31
$GPRMC,121825.00,A,3732.88071,N,12704.47232,E,2.416,155.9,151124,,,A*5B
$GPGGA,121826.00,3732.88094,N,12704.47184,E,1,08,0.00,29.7,M,,,,*33
$GPRMC,121826.00,A,3732.88094,N,12704.47184,E,2.405,154.7,151124,,,A*50
$GPGGA,121827.00,3732.88061,N,12704.47167,E,1,08,0.00,30.0,M,,,,*3A
$GPRMC,121827.00,A,3732.88061,N,12704.47167,E,2.401,148.3,151124,,,A*5B
$GPGGA,121828.00,3732.88017,N,12704.47139,E,1,08,0.00,29.8,M,,,,*3F
$GPRMC,121828.00,A,3732.88017,N,12704.47139,E,2.399,146.0,151124,,,A*55
$GPGGA,121829.00,3732.87988,N,12704.47076,E,1,08,0.00,30.0,M,,,,*34
$GPRMC,121829.00,A,3732.87988,N,12704.47076,E,2.396,165.5,151124,,,A*55
$GPGGA,121830.00,3732.87959,N,12704.47012,E,1,08,0.00,29.9,M,,,,*33
$GPRMC,121830.00,A,3732.87959,N,12704.47012,E,2.393,161.8,151124,,,A*5F
$GPGGA,121831.00,3732.87935,N,12704.46942,E,1,08,0.00,30.2,M,,,,*36
$GPRMC,121831.00,A,3732.87935,N,12704.46942,E,2.389,183.4,151124,,,A*52
$GPGGA,121832.00,3732.87854,N,12704.46876,E,1,08,0.00,29.9,M,,,,*36
$GPRMC,121832.00,A,3732.87854,N,12704.46876,E,2.393,160.3,151124,,,A*50
$GPGGA,121833.00,3732.87854,N,12704.46870,E,1,08,0.00,30.5,M,,,,*35
$GPRMC,121833.00,A,3732.87854,N,12704.46870,E,2.384,168.3,151124,,,A*59
$GPGGA,121834.00,3732.87905,N,12704.46950,E,1,08,0.00,29.7,M,,,,*3E
$GPRMC,121834.00,A,3732.87905,N,12704.46950,E,2.366,152.8,151124,,,A*56
$GPGGA,121835.00,3732.87972,N,12704.47073,E,1,08,0.00,30.3,M,,,,*3A
$GPRMC,121835.00,A,3732.87972,N,12704.47073,E,2.345,155.2,151124,,,A*52
$GPGGA,121836.00,3732.88016,N,12704.47042,E,1,08,0.00,30.0,M,,,,*3C
$GPRMC,121836.00,A,3732.88016,N,12704.47042,E,2.332,159.0,151124,,,A*59
$GPGGA,121837.00,3732.87953,N,12704.46942,E,1,08,0.00,29.8,M,,,,*32
$GPRMC,121837.00,A,3732.87953,N,12704.46942,E,2.335,151.7,151124,,,A*5F
$GPGGA,121838.00,3732.87760,N,12704.46723,E,1,08,0.00,29.7,M,,,,*35
$GPRMC,121838.00,A,3732.87760,N,12704.46723,E,2.358,150.4,151124,,,A*5E
$GPGGA,121839.00,3732.87726,N,12704.46612,E,1,08,0.00,29.6,M,,,,*34
$GPRMC,121839.00,A,3732.87726,N,12704.46612,E,2.357,157.6,151124,,,A*54
$GPGGA,121840.00,3732.87738,N,12704.46515,E,1,08,0.00,30.4,M,,,,*3B
$GPRMC,121840.00,A,3732.87738,N,12704.46515,E,2.351,222.9,151124,,,A*59
$GPGGA,121841.00,3732.87642,N,12704.46380,E,1,08,0.00,30.8,M,,,,*30
$GPRMC,121841.00,A,3732.87642,N,12704.46380,E,2.359,235.4,151124,,,A*5D
$GPGGA,121842.00,3732.87590,N,12704.46338,E,1,08,0.00,29.9,M,,,,*35
$GPRMC,121842.00,A,3732.87590,N,12704.46338,E,2.358,256.9,151124,,,A*58
$GPGGA,121843.00,3732.87761,N,12704.46240,E,1,08,0.00,27.8,M,,,,*39
$GPRMC,121843.00,A,3732.87761,N,12704.46240,E,2.332,170.8,151124,,,A*51
$GPGGA,121844.00,3732.87805,N,12704.46306,E,1,08,0.00,27.0,M,,,,*38
$GPRMC,121844.00,A,3732.87805,N,12704.46306,E,2.317,167.4,151124,,,A*55
$GPGGA,121845.00,3732.87677,N,12704.46137,E,1,08,0.00,27.3,M,,,,*31
$GPRMC,121845.00,A,3732.87677,N,12704.46137,E,2.330,179.4,151124,,,A*55
$GPGGA,121846.00,3732.87605,N,12704.46105,E,1,08,0.00,28.0,M,,,,*3A
$GPRMC,121846.00,A,3732.87605,N,12704.46105,E,2.331,148.0,151124,,,A*55
$GPGGA,121847.00,3732.87479,N,12704.46074,E,1,08,0.00,27.0,M,,,,*3A
$GPRMC,121847.00,A,3732.87479,N,12704.46074,E,2.339,172.2,151124,,,A*59
$GPGGA,121848.00,3732.87428,N,12704.46084,E,1,08,0.00,26.0,M,,,,*3F
$GPRMC,121848.00,A,3732.87428,N,12704.46084,E,2.336,161.0,151124,,,A*52
$GPGGA,121849.00,3732.87371,N,12704.46041,E,1,08,0.00,25.9,M,,,,*36
$GPRMC,121849.00,A,3732.87371,N,12704.46041,E,2.337,164.3,151124,,,A*56
$GPGGA,121850.00,3732.87309,N,12704.45993,E,1,08,0.00,26.2,M,,,,*3C
$GPRMC,121850.00,A,3732.87309,N,12704.45993,E,2.337,167.7,151124,,,A*53
$GPGGA,121851.00,3732.87257,N,12704.45963,E,1,08,0.00,26.2,M,,,,*38
$GPRMC,121851.00,A,3732.87257,N,12704.45963,E,2.336,173.1,151124,,,A*55
$GPGGA,121852.00,3732.87153,N,12704.45943,E,1,08,0.00,26.5,M,,,,*39
$GPRMC,121852.00,A,3732.87153,N,12704.45943,E,2.341,193.8,151124,,,A*54
$GPGGA,121853.00,3732.87067,N,12704.45921,E,1,08,0.00,27.2,M,,,,*3C
$GPRMC,121853.00,A,3732.87067,N,12704.45921,E,2.344,185.1,151124,,,A*5C
$GPGGA,121854.00,3732.87012,N,12704.45892,E,1,08,0.00,27.5,M,,,,*37
$GPRMC,121854.00,A,3732.87012,N,12704.45892,E,2.343,164.1,151124,,,A*58
$GPGGA,121855.00,3732.86940,N,12704.45838,E,1,08,0.00,27.7,M,,,,*3B
$GPRMC,121855.00,A,3732.86940,N,12704.45838,E,2.345,154.3,151124,,,A*51
$GPGGA,121856.00,3732.86907,N,12704.45809,E,1,08,0.00,28.0,M,,,,*31
$GPRMC,121856.00,A,3732.86907,N,12704.45809,E,2.342,160.6,151124,,,A*56
$GPGGA,121857.00,3732.86826,N,12704.45762,E,1,08,0.00,28.1,M,,,,*31
$GPRMC,121857.00,A,3732.86826,N,12704.45762,E,2.345,161.0,151124,,,A*57
$GPGGA,121858.00,3732.86762,N,12704.45774,E,1,08,0.00,28.3,M,,,,*34
$GPRMC,121858.00,A,3732.86762,N,12704.45774,E,2.344,154.8,151124,,,A*5F
$GPGGA,121859.00,3732.86609,N,12704.45736,E,1,08,0.00,28.8,M,,,,*34
$GPRMC,121859.00,A,3732.86609,N,12704.45736,E,2.355,158.2,151124,,,A*52
$GPGGA,121900.00,3732.86446,N,12704.45668,E,1,08,0.00,28.7,M,,,,*35
$GPRMC,121900.00,A,3732.86446,N,12704.45668,E,2.367,137.4,151124,,,A*52
$GPGGA,121901.00,3732.86489,N,12704.45736,E,1,08,0.00,29.1,M,,,,*3A
$GPRMC,121901.00,A,3732.86489,N,12704.45736,E,2.353,140.6,151124,,,A*5F
$GPGGA,121902.00,3732.86396,N,12704.45759,E,1,08,0.00,29.2,M,,,,*3A
$GPRMC,121902.00,A,3732.86396,N,12704.45759,E,2.354,148.7,151124,,,A*52
$GPGGA,121903.00,3732.86360,N,12704.45748,E,1,08,0.00,29.7,M,,,,*37
$GPRMC,121903.00,A,3732.86360,N,12704.45748,E,2.351,157.1,151124,,,A*57
$GPGGA,121904.00,3732.86342,N,12704.45705,E,1,08,0.00,29.6,M,,,,*38
$GPRMC,121904.00,A,3732.86342,N,12704.45705,E,2.347,142.4,151124,,,A*5F
$GPGGA,121905.00,3732.86267,N,12704.45664,E,1,08,0.00,30.4,M,,,,*33
$GPRMC,121905.00,A,3732.86267,N,12704.45664,E,2.349,155.8,151124,,,A*5A
$GPGGA,121906.00,3732.86180,N,12704.45635,E,1,08,0.00,29.8,M,,,,*3A
$GPRMC,121906.00,A,3732.86180,N,12704.45635,E,2.351,201.8,151124,,,A*5C
$GPGGA,121907.00,3732.86123,N,12704.45586,E,1,08,0.00,29.3,M,,,,*32
$GPRMC,121907.00,A,3732.86123,N,12704.45586,E,2.352,201.7,151124,,,A*53
$GPGGA,121908.00,3732.86007,N,12704.45538,E,1,08,0.00,27.6,M,,,,*34
$GPRMC,121908.00,A,3732.86007,N,12704.45538,E,2.358,203.1,151124,,,A*50
$GPGGA,121909.00,3732.85903,N,12704.45500,E,1,08,0.00,26.5,M,,,,*32
$GPRMC,121909.00,A,3732.85903,N,12704.45500,E,2.363,193.0,151124,,,A*57
$GPGGA,121910.00,3732.85719,N,12704.45499,E,1,08,0.00,25.2,M,,,,*3A
$GPRMC,121910.00,A,3732.85719,N,12704.45499,E,2.376,199.9,151124,,,A*5C
$GPGGA,121911.00,3732.85466,N,12704.45515,E,1,08,0.00,25.0,M,,,,*37
$GPRMC,121911.00,A,3732.85466,N,12704.45515,E,2.395,210.4,151124,,,A*51
$GPGGA,121912.00,3732.85466,N,12704.45438,E,1,08,0.00,24.8,M,,,,*33
$GPRMC,121912.00,A,3732.85466,N,12704.45438,E,2.390,164.9,151124,,,A*54
$GPGGA,121913.00,3732.85358,N,12704.45386,E,1,08,0.00,24.5,M,,,,*37
$GPRMC,121913.00,A,3732.85358,N,12704.45386,E,2.396,153.2,151124,,,A*54
$GPGGA,121914.00,3732.85353,N,12704.45343,E,1,08,0.00,24.5,M,,,,*32
$GPRMC,121914.00,A,3732.85353,N,12704.45343,E,2.390,150.6,151124,,,A*50
$GPGGA,121915.00,3732.85320,N,12704.45292,E,1,08,0.00,24.8,M,,,,*37
$GPRMC,121915.00,A,3732.85320,N,12704.45292,E,2.387,145.6,151124,,,A*5A
$GPGGA,121916.00,3732.85320,N,12704.45176,E,1,08,0.00,24.8,M,,,,*3D
$GPRMC,121916.00,A,3732.85320,N,12704.45176,E,2.383,144.4,151124,,,A*57
$GPGGA,121917.00,3732.85262,N,12704.45150,E,1,08,0.00,24.9,M,,,,*3E
$GPRMC,121917.00,A,3732.85262,N,12704.45150,E,2.383,145.6,151124,,,A*56
$GPGGA,121918.00,3732.85209,N,12704.45069,E,1,08,0.00,24.6,M,,,,*38
$GPRMC,121918.00,A,3732.85209,N,12704.45069,E,2.384,163.2,151124,,,A*58
$GPGGA,121919.00,3732.85200,N,12704.45007,E,1,08,0.00,24.6,M,,,,*38
$GPRMC,121919.00,A,3732.85200,N,12704.45007,E,2.379,162.5,151124,,,A*5C
$GPGGA,121920.00,3732.85176,N,12704.44920,E,1,08,0.00,24.7,M,,,,*3C
$GPRMC,121920.00,A,3732.85176,N,12704.44920,E,2.377,177.7,151124,,,A*51
$GPGGA,121921.00,3732.85163,N,12704.44859,E,1,08,0.00,25.0,M,,,,*30
$GPRMC,121921.00,A,3732.85163,N,12704.44859,E,2.373,185.4,151124,,,A*51
$GPGGA,121922.00,3732.85110,N,12704.44735,E,1,08,0.00,24.5,M,,,,*36
$GPRMC,121922.00,A,3732.85110,N,12704.44735,E,2.375,186.9,151124,,,A*5B
$GPGGA,121923.00,3732.85101,N,12704.44683,E,1,08,0.00,24.5,M,,,,*3B
$GPRMC,121923.00,A,3732.85101,N,12704.44683,E,2.370,172.5,151124,,,A*54
$GPGGA,121924.00,3732.85057,N,12704.44616,E,1,08,0.00,24.8,M,,,,*3F
$GPRMC,121924.00,A,3732.85057,N,12704.44616,E,2.369,190.3,151124,,,A*5F
$GPGGA,121925.00,3732.85041,N,12704.44574,E,1,08,0.00,25.3,M,,,,*34
$GPRMC,121925.00,A,3732.85041,N,12704.44574,E,2.365,161.8,151124,,,A*57
$GPGGA,121926.00,3732.85022,N,12704.44503,E,1,08,0.00,25.7,M,,,,*36
$GPRMC,121926.00,A,3732.85022,N,12704.44503,E,2.362,182.1,151124,,,A*52
$GPGGA,121927.00,3732.84997,N,12704.44469,E,1,08,0.00,26.2,M,,,,*3A
$GPRMC,121927.00,A,3732.84997,N,12704.44469,E,2.358,184.2,151124,,,A*54
$GPGGA,121928.00,3732.84986,N,12704.44412,E,1,08,0.00,26.1,M,,,,*3A
$GPRMC,121928.00,A,3732.84986,N,12704.44412,E,2.354,188.6,151124,,,A*53
$GPGGA,121929.00,3732.84954,N,12704.44324,E,1,08,0.00,26.0,M,,,,*37
$GPRMC,121929.00,A,3732.84954,N,12704.44324,E,2.353,186.2,151124,,,A*52
$GPGGA,121930.00,3732.84938,N,12704.44243,E,1,08,0.00,26.5,M,,,,*30
$GPRMC,121930.00,A,3732.84938,N,12704.44243,E,2.350,246.9,151124,,,A*57
$GPGGA,121931.00,3732.84922,N,12704.44041,E,1,08,0.00,27.6,M,,,,*38
$GPRMC,121931.00,A,3732.84922,N,12704.44041,E,2.351,255.5,151124,,,A*52
$GPGGA,121932.00,3732.84912,N,12704.43995,E,1,08,0.00,26.7,M,,,,*3F
$GPRMC,121932.00,A,3732.84912,N,12704.43995,E,2.347,267.3,151124,,,A*55
$GPGGA,121933.00,3732.84917,N,12704.43936,E,1,08,0.00,26.2,M,,,,*37
$GPRMC,121933.00,A,3732.84917,N,12704.43936,E,2.341,273.8,151124,,,A*50
$GPGGA,121934.00,3732.84920,N,12704.43864,E,1,08,0.00,26.3,M,,,,*33
$GPRMC,121934.00,A,3732.84920,N,12704.43864,E,2.336,257.6,151124,,,A*5D
$GPGGA,121935.00,3732.84890,N,12704.43856,E,1,08,0.00,25.1,M,,,,*38
$GPRMC,121935.00,A,3732.84890,N,12704.43856,E,2.332,253.0,151124,,,A*51
$GPGGA,121936.00,3732.84847,N,12704.43797,E,1,08,0.00,24.7,M,,,,*34
$GPRMC,121936.00,A,3732.84847,N,12704.43797,E,2.331,269.3,151124,,,A*53
$GPGGA,121937.00,3732.84869,N,12704.43716,E,1,08,0.00,24.8,M,,,,*3F
$GPRMC,121937.00,A,3732.84869,N,12704.43716,E,2.325,280.5,151124,,,A*53
$GPGGA,121938.00,3732.84876,N,12704.43691,E,1,08,0.00,24.0,M,,,,*38
$GPRMC,121938.00,A,3732.84876,N,12704.43691,E,2.318,277.8,151124,,,A*57
$GPGGA,121939.00,3732.84928,N,12704.43602,E,1,08,0.00,24.0,M,,,,*39
$GPRMC,121939.00,A,3732.84928,N,12704.43602,E,2.309,282.7,151124,,,A*53
$GPGGA,121940.00,3732.84984,N,12704.43539,E,1,08,0.00,23.1,M,,,,*3C
$GPRMC,121940.00,A,3732.84984,N,12704.43539,E,2.299,270.9,151124,,,A*5B
$GPGGA,121941.00,3732.85072,N,12704.43401,E,1,08,0.00,24.0,M,,,,*30
$GPRMC,121941.00,A,3732.85072,N,12704.43401,E,2.288,280.0,151124,,,A*57
$GPGGA,121942.00,3732.85098,N,12704.43302,E,1,08,0.00,24.3,M,,,,*30
$GPRMC,121942.00,A,3732.85098,N,12704.43302,E,2.282,279.7,151124,,,A*5F
$GPGGA,121943.00,3732.85104,N,12704.43249,E,1,08,0.00,24.5,M,,,,*3D
$GPRMC,121943.00,A,3732.85104,N,12704.43249,E,2.277,260.2,151124,,,A*53
$GPGGA,121944.00,3732.85110,N,12704.43182,E,1,08,0.00,24.7,M,,,,*39
$GPRMC,121944.00,A,3732.85110,N,12704.43182,E,2.272,250.3,151124,,,A*52
$GPGGA,121945.00,3732.85154,N,12704.43011,E,1,08,0.00,24.7,M,,,,*33
$GPRMC,121945.00,A,3732.85154,N,12704.43011,E,2.267,240.2,151124,,,A*5C
$GPGGA,121946.00,3732.85149,N,12704.42958,E,1,08,0.00,24.7,M,,,,*39
$GPRMC,121946.00,A,3732.85149,N,12704.42958,E,2.263,257.9,151124,,,A*5F
$GPGGA,121947.00,3732.85161,N,12704.42862,E,1,08,0.00,25.3,M,,,,*3F
$GPRMC,121947.00,A,3732.85161,N,12704.42862,E,2.258,270.9,151124,,,A*51
$GPGGA,121948.00,3732.85162,N,12704.42795,E,1,08,0.00,25.3,M,,,,*34
$GPRMC,121948.00,A,3732.85162,N,12704.42795,E,2.254,261.0,151124,,,A*5F
$GPGGA,121949.00,3732.85143,N,12704.42763,E,1,08,0.00,25.5,M,,,,*39
$GPRMC,121949.00,A,3732.85143,N,12704.42763,E,2.250,260.8,151124,,,A*59
$GPGGA,121950.00,3732.85121,N,12704.42720,E,1,08,0.00,26.2,M,,,,*36
$GPRMC,121950.00,A,3732.85121,N,12704.42720,E,2.248,268.1,151124,,,A*5A
$GPGGA,121951.00,3732.85123,N,12704.42649,E,1,08,0.00,26.4,M,,,,*3D
$GPRMC,121951.00,A,3732.85123,N,12704.42649,E,2.243,266.9,151124,,,A*5A
$GPGGA,121952.00,3732.85120,N,12704.42550,E,1,08,0.00,26.3,M,,,,*31
$GPRMC,121952.00,A,3732.85120,N,12704.42550,E,2.241,269.3,151124,,,A*56
$GPGGA,121953.00,3732.85138,N,12704.42450,E,1,08,0.00,26.1,M,,,,*3A
$GPRMC,121953.00,A,3732.85138,N,12704.42450,E,2.236,257.5,151124,,,A*54
$GPGGA,121954.00,3732.85164,N,12704.42370,E,1,08,0.00,25.6,M,,,,*35
$GPRMC,121954.00,A,3732.85164,N,12704.42370,E,2.230,249.6,151124,,,A*55
$GPGGA,121955.00,3732.85137,N,12704.42329,E,1,08,0.00,25.3,M,,,,*3B
$GPRMC,121955.00,A,3732.85137,N,12704.42329,E,2.228,256.4,151124,,,A*5B
$GPGGA,121956.00,3732.85128,N,12704.42305,E,1,08,0.00,25.0,M,,,,*3B
$GPRMC,121956.00,A,3732.85128,N,12704.42305,E,2.223,249.6,151124,,,A*5F
$GPGGA,121957.00,3732.85146,N,12704.42217,E,1,08,0.00,24.9,M,,,,*38
$GPRMC,121957.00,A,3732.85146,N,12704.42217,E,2.218,254.9,151124,,,A*5F
$GPGGA,121958.00,3732.85152,N,12704.42160,E,1,08,0.00,25.1,M,,,,*38
$GPRMC,121958.00,A,3732.85152,N,12704.42160,E,2.214,251.3,151124,,,A*55
$GPGGA,121959.00,3732.85177,N,12704.42052,E,1,08,0.00,24.6,M,,,,*38
$GPRMC,121959.00,A,3732.85177,N,12704.42052,E,2.209,257.9,151124,,,A*53
$GPGGA,122000.00,3732.85193,N,12704.42007,E,1,08,0.00,24.5,M,,,,*37
$GPRMC,122000.00,A,3732.85193,N,12704.42007,E,2.203,249.4,151124,,,A*57
$GPGGA,122001.00,3732.85179,N,12704.41937,E,1,08,0.00,24.4,M,,,,*3A
$GPRMC,122001.00,A,3732.85179,N,12704.41937,E,2.201,245.2,151124,,,A*53
$GPGGA,122002.00,3732.85235,N,12704.41637,E,1,08,0.00,23.3,M,,,,*3D
$GPRMC,122002.00,A,3732.85235,N,12704.41637,E,2.200,237.6,151124,,,A*54
$GPGGA,122003.00,3732.85190,N,12704.41610,E,1,08,0.00,23.9,M,,,,*3F
$GPRMC,122003.00,A,3732.85190,N,12704.41610,E,2.199,239.4,151124,,,A*53
$GPGGA,122004.00,3732.85186,N,12704.41530,E,1,08,0.00,23.6,M,,,,*31
$GPRMC,122004.00,A,3732.85186,N,12704.41530,E,2.196,243.5,151124,,,A*51
$GPGGA,122005.00,3732.85197,N,12704.41526,E,1,08,0.00,24.0,M,,,,*36
$GPRMC,122005.00,A,3732.85197,N,12704.41526,E,2.189,305.0,151124,,,A*5F
$GPGGA,122006.00,3732.85232,N,12704.41410,E,1,08,0.00,24.4,M,,,,*39
$GPRMC,122006.00,A,3732.85232,N,12704.41410,E,2.185,301.0,151124,,,A*5C
$GPGGA,122007.00,3732.85242,N,12704.41375,E,1,08,0.00,24.1,M,,,,*3E
$GPRMC,122007.00,A,3732.85242,N,12704.41375,E,2.179,309.5,151124,,,A*50
$GPGGA,122008.00,3732.85305,N,12704.41259,E,1,08,0.00,23.6,M,,,,*3C
$GPRMC,122008.00,A,3732.85305,N,12704.41259,E,2.172,306.9,151124,,,A*5A
$GPGGA,122009.00,3732.85263,N,12704.41258,E,1,08,0.00,24.0,M,,,,*3C
$GPRMC,122009.00,A,3732.85263,N,12704.41258,E,2.169,304.7,151124,,,A*5D
$GPGGA,122010.00,3732.85267,N,12704.41257,E,1,08,0.00,23.8,M,,,,*30
$GPRMC,122010.00,A,3732.85267,N,12704.41257,E,2.163,309.4,151124,,,A*5A
$GPGGA,122011.00,3732.85287,N,12704.41196,E,1,08,0.00,23.7,M,,,,*3E
$GPRMC,122011.00,A,3732.85287,N,12704.41196,E,2.158,316.4,151124,,,A*5D
$GPGGA,122012.00,3732.85319,N,12704.41064,E,1,08,0.00,23.9,M,,,,*39
$GPRMC,122012.00,A,3732.85319,N,12704.41064,E,2.154,261.4,151124,,,A*59
$GPGGA,122013.00,3732.85323,N,12704.41073,E,1,08,0.00,23.4,M,,,,*3A
$GPRMC,122013.00,A,3732.85323,N,12704.41073,E,2.148,259.0,151124,,,A*55
$GPGGA,122014.00,3732.85327,N,12704.40954,E,1,08,0.00,23.3,M,,,,*33
$GPRMC,122014.00,A,3732.85327,N,12704.40954,E,2.146,280.3,151124,,,A*52
$GPGGA,122015.00,3732.85367,N,12704.40894,E,1,08,0.00,23.4,M,,,,*3C
$GPRMC,122015.00,A,3732.85367,N,12704.40894,E,2.139,267.3,151124,,,A*5B
$GPGGA,122016.00,3732.85370,N,12704.40879,E,1,08,0.00,23.1,M,,,,*3F
$GPRMC,122016.00,A,3732.85370,N,12704.40879,E,2.134,268.9,151124,,,A*55
$GPGGA,122017.00,3732.85403,N,12704.40810,E,1,08,0.00,23.6,M,,,,*35
$GPRMC,122017.00,A,3732.85403,N,12704.40810,E,2.128,258.7,151124,,,A*58
$GPGGA,122018.00,3732.85417,N,12704.40786,E,1,08,0.00,23.9,M,,,,*30
$GPRMC,122018.00,A,3732.85417,N,12704.40786,E,2.122,258.2,151124,,,A*5D
$GPGGA,122019.00,3732.85428,N,12704.40773,E,1,08,0.00,24.0,M,,,,*39
$GPRMC,122019.00,A,3732.85428,N,12704.40773,E,2.116,271.6,151124,,,A*52
$GPGGA,122020.00,3732.85424,N,12704.40597,E,1,08,0.00,23.6,M,,,,*36
$GPRMC,122020.00,A,3732.85424,N,12704.40597,E,2.117,279.6,151124,,,A*55
$GPGGA,122021.00,3732.85489,N,12704.40392,E,1,08,0.00,23.6,M,,,,*33
$GPRMC,122021.00,A,3732.85489,N,12704.40392,E,2.113,282.9,151124,,,A*5F
$GPGGA,122022.00,3732.85438,N,12704.40363,E,1,08,0.00,24.3,M,,,,*36
$GPRMC,122022.00,A,3732.85438,N,12704.40363,E,2.113,269.1,151124,,,A*55
$GPGGA,122023.00,3732.85428,N,12704.40305,E,1,08,0.00,26.4,M,,,,*33
$GPRMC,122023.00,A,3732.85428,N,12704.40305,E,2.111,287.7,151124,,,A*51
$GPGGA,122024.00,3732.85447,N,12704.40153,E,1,08,0.00,26.0,M,,,,*38
$GPRMC,122024.00,A,3732.85447,N,12704.40153,E,2.109,272.6,151124,,,A*5C
$GPGGA,122025.00,3732.85457,N,12704.39877,E,1,08,0.00,26.4,M,,,,*3D
$GPRMC,122025.00,A,3732.85457,N,12704.39877,E,2.113,267.4,151124,,,A*50
$GPGGA,122026.00,3732.85461,N,12704.39897,E,1,08,0.00,26.1,M,,,,*30
$GPRMC,122026.00,A,3732.85461,N,12704.39897,E,2.107,265.8,151124,,,A*53
$GPGGA,122027.00,3732.85479,N,12704.39872,E,1,08,0.00,26.1,M,,,,*33
$GPRMC,122027.00,A,3732.85479,N,12704.39872,E,2.101,274.4,151124,,,A*5A
$GPGGA,122028.00,3732.85490,N,12704.39774,E,1,08,0.00,25.5,M,,,,*35
$GPRMC,122028.00,A,3732.85490,N,12704.39774,E,2.098,260.6,151124,,,A*5D
$GPGGA,122029.00,3732.85485,N,12704.39540,E,1,08,0.00,25.3,M,,,,*33
$GPRMC,122029.00,A,3732.85485,N,12704.39540,E,2.102,263.5,151124,,,A*5F
$GPGGA,122030.00,3732.85503,N,12704.39523,E,1,08,0.00,25.2,M,,,,*30
$GPRMC,122030.00,A,3732.85503,N,12704.39523,E,2.096,256.6,151124,,,A*54
$GPGGA,122031.00,3732.85461,N,12704.39444,E,1,08,0.00,24.4,M,,,,*33
$GPRMC,122031.00,A,3732.85461,N,12704.39444,E,2.097,262.4,151124,,,A*54
$GPGGA,122032.00,3732.85437,N,12704.39284,E,1,08,0.00,24.1,M,,,,*3C
$GPRMC,122032.00,A,3732.85437,N,12704.39284,E,2.099,266.1,151124,,,A*51
$GPGGA,122033.00,3732.85465,N,12704.39267,E,1,08,0.00,23.9,M,,,,*38
$GPRMC,122033.00,A,3732.85465,N,12704.39267,E,2.092,265.6,151124,,,A*55
$GPGGA,122034.00,3732.85473,N,12704.39156,E,1,08,0.00,24.8,M,,,,*3F
$GPRMC,122034.00,A,3732.85473,N,12704.39156,E,2.091,266.5,151124,,,A*57
$GPGGA,122035.00,3732.85460,N,12704.39134,E,1,08,0.00,25.0,M,,,,*31
$GPRMC,122035.00,A,3732.85460,N,12704.39134,E,2.087,276.3,151124,,,A*50
$GPGGA,122036.00,3732.85490,N,12704.39012,E,1,08,0.00,25.0,M,,,,*38
$GPRMC,122036.00,A,3732.85490,N,12704.39012,E,2.084,279.4,151124,,,A*52
$GPGGA,122037.00,3732.85527,N,12704.38967,E,1,08,0.00,24.9,M,,,,*36
$GPRMC,122037.00,A,3732.85527,N,12704.38967,E,2.078,278.9,151124,,,A*5B
$GPGGA,122038.00,3732.85551,N,12704.38860,E,1,08,0.00,24.8,M,,,,*3F
$GPRMC,122038.00,A,3732.85551,N,12704.38860,E,2.075,275.9,151124,,,A*53
$GPGGA,122039.00,3732.85569,N,12704.38830,E,1,08,0.00,24.9,M,,,,*31
$GPRMC,122039.00,A,3732.85569,N,12704.38830,E,2.069,264.2,151124,,,A*5A
$GPGGA,122040.00,3732.85546,N,12704.38745,E,1,08,0.00,26.0,M,,,,*34
$GPRMC,122040.00,A,3732.85546,N,12704.38745,E,2.069,251.6,151124,,,A*56
$GPGGA,122041.00,3732.85532,N,12704.38613,E,1,08,0.00,25.7,M,,,,*30
$GPRMC,122041.00,A,3732.85532,N,12704.38613,E,2.070,245.5,151124,,,A*58
$GPGGA,122042.00,3732.85534,N,12704.38457,E,1,08,0.00,25.2,M,,,,*32
$GPRMC,122042.00,A,3732.85534,N,12704.38457,E,2.071,293.7,151124,,,A*57
$GPGGA,122043.00,3732.85532,N,12704.38385,E,1,08,0.00,25.6,M,,,,*39
$GPRMC,122043.00,A,3732.85532,N,12704.38385,E,2.069,255.1,151124,,,A*5D
$GPGGA,122044.00,3732.85626,N,12704.38307,E,1,08,0.00,25.5,M,,,,*31
$GPRMC,122044.00,A,3732.85626,N,12704.38307,E,2.060,236.3,151124,,,A*58
$GPGGA,122045.00,3732.85589,N,12704.38221,E,1,08,0.00,24.7,M,,,,*30
$GPRMC,122045.00,A,3732.85589,N,12704.38221,E,2.061,205.3,151124,,,A*5B
$GPGGA,122046.00,3732.85614,N,12704.38224,E,1,08,0.00,24.9,M,,,,*3F
$GPRMC,122046.00,A,3732.85614,N,12704.38224,E,2.054,222.6,151124,,,A*5C
$GPGGA,122047.00,3732.85693,N,12704.38341,E,1,08,0.00,25.2,M,,,,*39
$GPRMC,122047.00,A,3732.85693,N,12704.38341,E,2.038,231.2,151124,,,A*5C
$GPGGA,122048.00,3732.85732,N,12704.38189,E,1,08,0.00,25.6,M,,,,*3E
$GPRMC,122048.00,A,3732.85732,N,12704.38189,E,2.036,262.2,151124,,,A*57
$GPGGA,122049.00,3732.85767,N,12704.38101,E,1,08,0.00,25.6,M,,,,*3F
$GPRMC,122049.00,A,3732.85767,N,12704.38101,E,2.032,321.3,151124,,,A*55
$GPGGA,122050.00,3732.85888,N,12704.37968,E,1,08,0.00,24.1,M,,,,*37
$GPRMC,122050.00,A,3732.85888,N,12704.37968,E,2.023,262.4,151124,,,A*5A
$GPGGA,122051.00,3732.85940,N,12704.37917,E,1,08,0.00,23.8,M,,,,*35
$GPRMC,122051.00,A,3732.85940,N,12704.37917,E,2.017,240.0,151124,,,A*55
$GPGGA,122052.00,3732.86132,N,12704.37793,E,1,08,0.00,23.9,M,,,,*3B
$GPRMC,122052.00,A,3732.86132,N,12704.37793,E,2.003,244.8,151124,,,A*53
$GPGGA,122053.00,3732.86199,N,12704.37888,E,1,08,0.00,23.7,M,,,,*30
$GPRMC,122053.00,A,3732.86199,N,12704.37888,E,1.989,222.8,151124,,,A*5E
$GPGGA,122054.00,3732.86280,N,12704.37936,E,1,08,0.00,23.5,M,,,,*3A
$GPRMC,122054.00,A,3732.86280,N,12704.37936,E,1.977,248.0,151124,,,A*53
$GPGGA,122055.00,3732.86375,N,12704.37950,E,1,08,0.00,23.8,M,,,,*3D
$GPRMC,122055.00,A,3732.86375,N,12704.37950,E,1.965,254.8,151124,,,A*5F
$GPGGA,122056.00,3732.86393,N,12704.37846,E,1,08,0.00,24.0,M,,,,*3F
$GPRMC,122056.00,A,3732.86393,N,12704.37846,E,1.963,257.6,151124,,,A*59
$GPGGA,122057.00,3732.86307,N,12704.37750,E,1,08,0.00,24.3,M,,,,*38
$GPRMC,122057.00,A,3732.86307,N,12704.37750,E,1.968,293.1,151124,,,A*59
$GPGGA,122058.00,3732.86398,N,12704.37592,E,1,08,0.00,24.1,M,,,,*3F
$GPRMC,122058.00,A,3732.86398,N,12704.37592,E,1.963,277.7,151124,,,A*5B
$GPGGA,122059.00,3732.86373,N,12704.37618,E,1,08,0.00,23.6,M,,,,*3A
$GPRMC,122059.00,A,3732.86373,N,12704.37618,E,1.959,234.9,151124,,,A*5E
$GPGGA,122100.00,3732.86465,N,12704.37504,E,1,08,0.00,23.6,M,,,,*39
$GPRMC,122100.00,A,3732.86465,N,12704.37504,E,1.953,312.7,151124,,,A*5C
$GPGGA,122101.00,3732.86550,N,12704.37504,E,1,08,0.00,23.5,M,,,,*3C
$GPRMC,122101.00,A,3732.86550,N,12704.37504,E,1.942,263.1,151124,,,A*5B
$GPGGA,122102.00,3732.86655,N,12704.37580,E,1,08,0.00,23.5,M,,,,*35
$GPRMC,122102.00,A,3732.86655,N,12704.37580,E,1.927,248.8,151124,,,A*51
$GPGGA,122103.00,3732.86760,N,12704.37579,E,1,08,0.00,24.6,M,,,,*31
$GPRMC,122103.00,A,3732.86760,N,12704.37579,E,1.915,245.4,151124,,,A*51
$GPGGA,122104.00,3732.86911,N,12704.37608,E,1,08,0.00,24.2,M,,,,*3F
